City_ID,City,Country,Latitude,Longitude,Max Temperature,Humidity (%),Cloudiness,Wind Speed,Datetime (Local)
0,stuttgart,DE,48.7823,9.177,3.14,87,0,1.54,1681954478
1,port blair,IN,11.6667,92.75,29.66,63,53,2.89,1681954478
2,ushuaia,AR,-54.8,-68.3,4.81,75,20,10.8,1681954358
3,hamilton,US,39.1834,-84.5333,22.35,49,0,3.09,1681954214
4,kharan,PK,28.5833,65.4167,18.9,15,0,1.89,1681954479
5,thompson,CA,55.7435,-97.8558,-0.91,55,75,5.14,1681954324
6,whitehorse,CA,60.7161,-135.0538,6.68,52,75,0,1681954342
7,qamdo,CN,31.1667,97.2333,4.53,48,49,2.37,1681954200
8,yushu,CN,44.8,126.5333,10.24,9,91,13.07,1681954480
9,cerritos,US,33.8583,-118.0648,21.61,44,20,5.66,1681954313
10,kununurra,AU,-15.7667,128.7333,27.99,39,1,7.72,1681954480
11,codrington,AU,-38.2667,141.9667,16.07,72,92,4.65,1681954077
12,edinburgh of the seven seas,SH,-37.0676,-12.3116,18.35,86,100,12.78,1681954481
13,vadso,NO,70.0744,29.7487,4.49,87,100,1.54,1681954437
14,canutama,BR,-6.5339,-64.3831,24.53,90,60,1.3,1681954481
15,grytviken,GS,-54.2811,-36.5092,3.35,92,100,2.78,1681954300
16,waitangi,NZ,-43.9535,-176.5597,17.68,89,95,4.02,1681954297
17,pisco,PE,-13.7,-76.2167,21.68,88,0,6.17,1681954365
18,eastham,US,41.8301,-69.9739,8.88,65,5,3.13,1681954336
19,remire-montjoly,GF,4.9167,-52.2667,24.02,100,75,2.57,1681954482
20,blackmans bay,AU,-43.0167,147.3167,15.07,78,100,3.06,1681954482
21,morehead city,US,34.7229,-76.726,22,85,0,2.24,1681954483
22,albany,US,42.6001,-73.9662,3.52,72,91,3.4,1681954201
23,vingt cinq,,,,,,,,
24,college,US,64.8569,-147.8028,5.18,47,20,3.09,1681954300
25,tiksi,RU,71.6872,128.8694,-18.99,98,100,2.24,1681954293
26,geraldton,AU,-28.7667,114.6,23.23,31,0,8.75,1681954056
27,bestobe,KZ,52.4994,73.0975,-1.26,67,5,1.99,1681954484
28,port-aux-francais,TF,-49.35,70.2167,4.97,67,14,15.6,1681954295
29,aksu,CN,41.1231,80.2644,9.12,59,100,3.67,1681954484
30,haiku-pauwela,US,20.9219,-156.3051,25.65,88,75,4.12,1681954308
31,wailua homesteads,US,22.0669,-159.378,27.14,67,40,7.2,1681954309
32,puerto natales,CL,-51.7236,-72.4875,7.94,73,69,7.72,1681954328
33,tevriz,RU,57.509,72.4042,-0.36,50,10,2.86,1681954485
34,sibut,CF,5.718,19.0739,24.46,67,98,0.74,1681954485
35,port elizabeth,ZA,-33.918,25.5701,18.51,85,0,2.57,1681954485
36,invercargill,NZ,-46.4,168.35,16.57,62,81,1.5,1681954325
37,dunedin,NZ,-45.8742,170.5036,15.45,78,85,1.73,1681954226
38,atafu village,TK,-8.5421,-172.5159,28.49,70,99,1.73,1681954432
39,ranau,MY,5.9538,116.6641,29.63,60,9,0.96,1681954486
40,fort bragg,US,35.139,-79.006,22.75,48,0,2.06,1681954486
41,bethel,US,41.3712,-73.414,9.41,66,0,0,1681954310
42,nar'yan-mar,RU,67.6713,53.087,0.41,96,100,5.39,1681954487
43,shalqar,KZ,47.8333,59.6,7.98,41,36,3.52,1681954487
44,gaigeturi,KR,33.4644,126.3183,19.03,77,20,2.06,1681954487
45,tolanaro,MG,-25.0319,46.9987,24.04,88,40,3.09,1681954317
46,vilyuchinsk,RU,52.9306,158.4028,7.15,93,100,2.58,1681954419
47,saipan,MP,15.1355,145.701,31.39,100,20,8.23,1681954322
48,katsuura,JP,35.1333,140.3,20.01,76,100,4.05,1681954462
49,karatuzskoye,RU,53.6072,92.8667,-2.7,59,100,7.09,1681954488
50,klaksvik,FO,62.2266,-6.589,6.51,79,6,4.63,1681954489
51,arboletes,CO,8.8505,-76.4269,26.55,82,89,4.65,1681954489
52,la'ie,US,21.6477,-157.9253,28.82,69,22,4.9,1681954313
53,constantia,RO,44.1833,28.65,10.39,93,100,6.33,1681954404
54,hawaiian paradise park,US,19.5933,-154.9731,26.73,90,100,7.72,1681954489
55,kavaratti,IN,10.5669,72.642,28.69,69,100,2.84,1681954490
56,saint-paul,RE,-21.0096,55.2707,25.06,91,4,1.95,1681954433
57,kudymkar,RU,59.0173,54.656,1.61,67,14,1.48,1681954490
58,devinuwara,,,,,,,,
59,san antonio de pale,GQ,-1.4014,5.6325,28.04,80,100,3.42,1681954490
60,sao gabriel da cachoeira,BR,-0.1303,-67.0892,25.49,80,92,1.04,1681954491
61,parham,AG,17.0968,-61.7705,25.02,71,20,4.12,1681954491
62,moratuwa,LK,6.773,79.8816,26.01,81,75,2.09,1681954492
63,costa calma,,,,,,,,
64,sinabang,ID,2.4803,96.3801,27.78,76,100,0.42,1681954471
65,jamestown,US,42.097,-79.2353,5.85,65,75,3.09,1681954280
66,souillac,MU,-20.5167,57.5167,25.21,88,75,3.6,1681954493
67,adamstown,PN,-25.066,-130.1015,24.46,75,100,0.95,1681954037
68,coahuayana de hidalgo,MX,18.7,-103.6583,22.92,86,11,1.64,1681954494
69,new norfolk,AU,-42.7826,147.0587,15.72,81,100,1.79,1681954494
70,phan thiet,VN,10.9333,108.1,30.87,66,24,3.08,1681954494
71,ilulissat,GL,69.2167,-51.1,-4.99,80,100,0,1681954043
72,taiohae,,,,,,,,
73,hermanus,ZA,-34.4187,19.2345,18.22,63,100,5.54,1681954067
74,isafjordur,IS,66.0755,-23.124,7.59,89,71,5.39,1681954301
75,udachny,RU,66.4167,112.4,-6.97,57,100,3.13,1681954327
76,montepuez,MZ,-13.1256,38.9997,18.3,98,97,2.15,1681954496
77,muynoq,UZ,43.7683,59.0214,10.18,33,93,5.72,1681954496
78,likiep,MH,9.8251,169.3107,26.68,82,100,7.68,1681954497
79,petropavlovsk-kamchatsky,RU,53.0452,158.6483,6.33,53,75,7,1681954372
80,suya,NG,9.4667,3.1833,24.79,76,54,2.34,1681954497
81,rio claro,BR,-22.4114,-47.5614,14.99,73,100,2.13,1681954497
82,kolonia town,FM,6.964,158.206,28.06,83,100,4.63,1681954498
83,yellowknife,CA,62.456,-114.3525,5.29,38,20,4.63,1681954113
84,alice springs,AU,-23.7,133.8833,19.75,49,0,7.72,1681954498
85,aioun,MR,16.6614,-9.6149,30.91,16,76,4.81,1681954499
86,lobujya,NP,27.95,86.8167,-6.96,50,0,0.84,1681954499
87,enewetak,MH,11.3474,162.3373,25.19,91,100,9.79,1681954316
88,sitka,US,57.0531,-135.33,11.94,40,75,4.12,1681954343
89,kailua-kona,US,19.6406,-155.9956,25.28,93,100,10.29,1681954139
90,punta arenas,CL,-53.15,-70.9167,6.06,75,0,13.89,1681954294
91,longyearbyen,SJ,78.2186,15.6401,-11.09,73,20,3.6,1681954034
92,howrah,IN,22.5892,88.3103,30,89,20,2.06,1681954500
93,kerikeri,NZ,-35.2268,173.9474,21.62,96,100,1.34,1681954482
94,zeya,RU,53.75,127.2667,0.01,60,100,4.51,1681954394
95,kuluncak,TR,38.8828,37.6728,9.27,95,100,3.01,1681954501
96,cabo san lucas,MX,22.8909,-109.9124,26.17,58,75,0.45,1681954501
97,port shepstone,ZA,-30.7414,30.455,19.74,36,0,3.64,1681954502
98,kangding,CN,30.0513,101.9603,13.72,86,100,1.87,1681954230
99,ancud,CL,-41.8697,-73.8203,12.13,97,98,1.8,1681954292
100,port saint john's,ZA,-31.6229,29.5448,21.14,35,39,3.71,1681954503
101,tura,IN,25.5198,90.2201,28.2,67,0,4,1681954368
102,anonang,PH,11,124.0333,30.14,64,8,3.55,1681954504
103,papatowai,NZ,-46.5619,169.4708,17.01,65,58,1.33,1681954302
104,bilibino,RU,68.0546,166.4372,-0.29,88,100,1.36,1681954296
105,chonchi,CL,-42.6128,-73.8092,13.56,98,74,1.01,1681954319
106,atambua,ID,-9.1061,124.8925,26.56,67,16,1.96,1681954506
107,avarua,CK,-21.2078,-159.775,26.03,89,100,6.69,1681954055
108,sant lluis,ES,39.8526,4.2594,9.22,100,0,1.03,1681954506
109,stanley,GB,54.868,-1.6985,6.05,94,0,1.54,1681954316
110,ribeira grande,PT,38.5167,-28.7,12.1,68,99,0.45,1681954507
111,lebu,CL,-37.6167,-73.65,12.42,95,100,5.9,1681954074
112,hammerfest,NO,70.6634,23.6821,4.25,100,100,5.66,1681954347
113,manokwari,ID,-0.8667,134.0833,27.64,78,100,1.51,1681954420
114,ansalta,RU,42.6894,46.1178,10.66,64,94,2.77,1681954509
115,broken hill,AU,-31.95,141.4333,16.43,42,0,7.53,1681954437
116,tutoia,BR,-2.7619,-42.2744,25.04,88,100,0.67,1681954209
117,badger,US,64.8,-147.5333,5.14,45,20,3.09,1681954152
118,jaisalmer,IN,26.9147,70.9181,25.94,31,16,4.21,1681954510
119,opuwo,NA,-18.0607,13.84,20.38,52,34,1.75,1681954353
120,daru,PG,-9.0763,143.2092,28.71,72,26,3.41,1681954193
121,palmer,US,42.1584,-72.3287,6.8,63,20,2.57,1681954511
122,okhotsk,RU,59.3833,143.3,-0.41,73,88,2.9,1681954370
123,aykhal,RU,66,111.5,-8.96,88,97,2.44,1681954430
124,haiphong,VN,20.8561,106.6822,26.95,83,75,2.57,1681954512
125,walvis bay,NA,-22.9575,14.5053,15.05,73,0,7.98,1681954513
126,bredasdorp,ZA,-34.5322,20.0403,16.21,62,100,2.51,1681954336
127,cargados carajos,,,,,,,,
128,calama,CL,-22.4667,-68.9333,14.27,38,0,1.03,1681954514
129,olonkinbyen,SJ,70.9221,-8.7187,2.18,84,100,10.58,1681954314
130,qaqortoq,GL,60.7167,-46.0333,-0.32,91,75,0.96,1681954312
131,likisa,TL,-8.6695,125.6875,22.47,67,23,0.56,1681954515
132,charters towers,AU,-20.1,146.2667,28.98,37,21,4.63,1681954516
133,poronaysk,RU,49.2167,143.1167,5.67,67,30,5.03,1681954517
134,qashyr,KZ,53.0675,76.1036,-0.8,46,6,2.99,1681954517
135,nova sintra,CV,14.8667,-24.7167,20.56,76,100,6.3,1681954518
136,marudi,,,,,,,,
137,slave lake,CA,55.2834,-114.769,3.99,75,100,3.09,1681954366
138,vila velha,BR,-20.3297,-40.2925,25.97,89,100,4.12,1681954519
139,colonia,DE,50.9333,6.95,9.42,48,0,3.09,1681954085
140,tonj,SS,7.2737,28.6822,25.81,65,99,1.3,1681954520
141,st. john's,CA,47.5649,-52.7093,2.04,95,100,6.17,1681954521
142,bhimbar,PK,32.9757,74.0793,20.36,64,0,1.41,1681954521
143,nsanje,MW,-16.92,35.262,18.95,98,6,1.01,1681954522
144,toliara,MG,-23.35,43.6667,23.92,69,0,3.07,1681954522
145,embi,KZ,48.8264,58.1442,7.94,49,100,2.1,1681954523
146,tabou,CI,4.423,-7.3528,25.42,90,100,2,1681954523
147,grande prairie,CA,55.1667,-118.8027,6.1,61,75,3.09,1681954524
148,west island,CC,-12.1568,96.8225,26.99,89,100,4.63,1681954524
149,antsiranana,MG,-12.2787,49.2917,25.12,80,62,5.04,1681954224
150,lihue,US,21.9789,-159.3672,27.47,68,40,7.2,1681954423
151,amungan,PH,15.3652,119.9582,30.51,66,5,3.83,1681954525
152,utrik,MH,11.2278,169.8474,26.8,77,96,7.89,1681954101
153,myshkin,RU,57.7897,38.4545,3.86,72,75,2.39,1681954526
154,talnakh,RU,69.4865,88.3972,-14.33,94,100,3.57,1681954318
155,georgetown,MY,5.4112,100.3354,25.96,94,40,2.06,1681954152
156,crane,US,31.3974,-102.3501,28.76,8,0,5.65,1681954061
157,tarinkot,AF,32.6268,65.8733,13.41,55,0,1.04,1681954527
158,salekhard,RU,66.53,66.6019,-7.93,92,100,1.95,1681954375
159,chinde,NP,26.8418,88.0763,24.4,28,0,2.37,1681954527
160,kuldiga,LV,56.974,21.9572,4.83,80,3,2.83,1681954528
161,salaqi,CN,40.5414,110.5108,10.98,15,98,2.24,1681954528
162,port mathurin,MU,-19.6833,63.4167,25.88,76,12,9.4,1681954529
163,ola,RU,59.5833,151.2833,1.69,87,98,4.02,1681954353
164,sinop,TR,41.7711,34.8709,8.72,98,99,1.57,1681954529
165,yemva,RU,62.59,50.8594,-2.65,98,98,1.56,1681954530
166,igarka,RU,67.4667,86.5833,-13.11,92,89,2.1,1681954346
167,zharkent,KZ,44.1628,80,8.02,36,44,2.48,1681954530
168,klyuchi,RU,52.2667,79.1667,-3.9,73,9,3.23,1681954383
169,baotou,CN,40.6522,109.8222,10.34,16,95,2.61,1681954531
170,fuvahmulah,,,,,,,,
171,itoman,JP,26.1247,127.6694,26.43,92,75,8.23,1681954532
172,port alfred,ZA,-33.5906,26.891,25.79,40,84,4.24,1681954533
173,'ohonua,,,,,,,,
174,touros,BR,-5.1989,-35.4608,26.26,84,41,4,1681954326
175,natal,BR,-5.795,-35.2094,26.36,89,20,2.06,1681954534
176,fort st. john,CA,56.2499,-120.8529,4.94,60,100,3.6,1681954534
177,puerto ayora,EC,-0.7393,-90.3518,23.64,100,100,2.65,1681954535
178,gobernador virasora,AR,-28.05,-56.0333,15.29,66,34,1.58,1681954535
179,traverse city,US,44.7631,-85.6206,4.11,88,100,3.09,1681954536
180,nelson bay,AU,-32.7167,152.15,19.03,98,100,4.47,1681954536
181,tazovsky,RU,67.4667,78.7,-10.7,95,95,2.26,1681954313
182,carnarvon,AU,-24.8667,113.6333,26.29,38,23,7.9,1681954300
183,oyama,JP,36.3,139.8,21.44,47,0,1.93,1681954537
184,pandan,PH,14.0453,124.1694,29.51,72,10,2.92,1681954366
185,aitape,PG,-3.1374,142.3475,26,91,100,4.14,1681954538
186,abepura,ID,-2.6333,140.5833,27.45,78,40,1.54,1681954538
187,greymouth,NZ,-42.4667,171.2,17.32,59,98,1.41,1681954539
188,galveston,US,29.3669,-94.9669,24.06,84,0,5.14,1681954539
189,kargasok,RU,59.0556,80.8572,-3.55,92,100,3.08,1681954381
190,gaozhou,CN,21.9392,110.8461,30.27,68,32,1.91,1681954540
191,suva,FJ,-18.1416,178.4415,28.71,79,75,4.12,1681954541
192,amuntai,ID,-2.4177,115.2494,30.73,65,13,1.24,1681954541
193,menongue,AO,-14.6585,17.691,16.29,74,28,1.4,1681954460
194,bengkulu,ID,-3.8004,102.2655,24.92,90,100,2.02,1681954542
195,douglas,US,41.3,-96.167,21.61,76,0,4.12,1681954278
196,manuel ojinaga,,,,,,,,
197,kruisfontein,ZA,-34.0033,24.7314,17.15,62,100,1.73,1681954542
198,nambucca heads,AU,-30.65,153,23.33,51,46,6.17,1681954542
199,uturoa,PF,-16.7333,-151.4333,28.24,78,100,6.33,1681954311
200,callao,PE,-12.0667,-77.15,24.29,69,0,8.23,1681954418
201,zyryanovsk,KZ,49.7386,84.2719,-9.22,92,93,0.11,1681954543
202,tame,CO,6.461,-71.73,25.14,66,88,2.16,1681954543
203,sabt alalayah,,,,,,,,
204,albacete,ES,38.8333,-2,10.45,54,0,3.09,1681953970
205,yemetsk,RU,63.4721,41.7941,0.53,99,100,2.14,1681954544
206,okha,RU,53.5739,142.9478,0.15,83,71,2.29,1681954193
207,anadyr,RU,64.75,177.4833,-1.72,74,20,5,1681954321
208,aldinga beach,AU,-35.2793,138.4604,19.14,60,98,3.79,1681954545
209,rongelap,MH,11.1635,166.8941,26.63,80,99,9.2,1681954444
210,iqaluit,CA,63.7506,-68.5145,-6.15,85,100,4.63,1681954172
211,fallon,US,39.4735,-118.7774,11.93,21,20,6.69,1681954266
212,kuta,ID,-8.7233,115.1723,26.97,88,75,5.36,1681954324
213,ornskoldsvik,SE,63.2909,18.7153,4.53,87,20,2.57,1681954546
214,tarawa,KI,1.419,172.984,32.05,66,20,5.66,1681954460
215,dudinka,RU,69.4058,86.1778,-14.1,96,98,2.58,1681954307
216,eyl,SO,7.9803,49.8164,26.98,73,100,3.39,1681954412
217,coquimbo,CL,-29.9533,-71.3436,13.85,88,0,1.03,1681954348
218,mar del plata,AR,-38.0023,-57.5575,11.64,84,40,2.06,1681954440
219,nogliki,RU,51.8333,143.1667,1.37,89,91,2.35,1681954547
220,pontes e lacerda,BR,-15.2261,-59.3353,21.97,99,100,1.64,1681954547
221,fale old settlement,TK,-9.3852,-171.2468,28.39,69,42,2.01,1681954547
222,uruacu,BR,-14.5247,-49.1408,21.5,95,100,0.1,1681954547
223,tsiombe,MG,-25.3,45.4833,21.25,96,85,2.8,1681954396
224,puerto san carlos,,,,,,,,
225,mandalgovi,MN,45.7625,106.2708,0.92,12,6,3.73,1681954548
226,hirara,JP,24.8,125.2833,26.15,89,75,11.83,1681954084
227,bardai,NG,11.65,7.2333,25.55,59,100,3.59,1681954337
228,quellon,CL,-43.1167,-73.6167,12.14,100,100,0,1681954387
229,oltinko'l,UZ,40.8011,72.1634,12.57,36,98,0.8,1681954549
230,asekeyevo,RU,53.5742,52.7972,6.61,52,39,1.76,1681954549
231,am djarass,,,,,,,,
232,ebon,MH,4.582,168.6964,28.37,77,99,4.95,1681954550
233,san patricio,US,28.017,-97.5169,24.53,85,63,6.23,1681954550
234,galesong,ID,-5.3166,119.3661,30.01,72,22,0.6,1681954550
235,jincheng,CN,35.5022,112.8328,25.1,49,0,2.54,1681954550
236,tilcara,AR,-23.5776,-65.3509,4.21,85,20,0.61,1681954551
237,mount isa,AU,-20.7333,139.5,26.87,28,0,6.69,1681954551
238,gangneung,KR,37.7556,128.8961,24.31,67,23,4.69,1681954551
239,sokur,RU,55.2093,83.319,-3.8,83,100,4.42,1681954551
240,anshun,CN,26.25,105.9333,22.22,65,17,5.71,1681954552
241,saudarkrokur,IS,65.7461,-19.6394,7.75,79,89,5.72,1681954552
242,sao vicente,BR,-23.9631,-46.3919,24.1,26,20,3.61,1681954552
243,yuzhno-kurilsk,RU,44.0306,145.8556,7.09,75,91,3.84,1681954441
244,comodoro rivadavia,AR,-45.8667,-67.5,19.92,42,0,7.2,1681954553
245,kaifeng,CN,34.7911,114.3483,26.59,57,0,1.67,1681954553
246,saraykent,TR,39.6936,35.5111,9.15,81,31,2.94,1681954553
247,alesund,NO,62.4723,6.1549,7.41,92,20,5.66,1681954553
248,abong mbang,CM,3.9833,13.1833,20.15,96,100,1.17,1681954554
249,east london,ZA,-33.0153,27.9116,28.44,25,75,6.09,1681954554
250,shangri-la,,,,,,,,
251,guerrero negro,MX,27.9769,-114.0611,14.07,79,34,9.56,1681954555
252,pagar alam,ID,-4.0167,103.2667,22.75,94,100,0.72,1681954555
253,vorgashor,RU,67.5833,63.95,-5.22,96,100,4.3,1681954342
254,iskateley,RU,67.6803,53.1512,0.35,96,100,5.27,1681954375
255,sovetskaya gavan',RU,48.9723,140.2878,6.58,65,100,3.87,1681954555
256,banda aceh,ID,5.5577,95.3222,27.78,77,100,2.83,1681954556
257,tocopilla,CL,-22.092,-70.1979,20.01,74,39,0.96,1681954322
258,cidade velha,CV,14.9167,-23.6167,23.26,68,75,6.17,1681954556
259,birjand,IR,32.8663,59.2211,5.26,30,0,4.12,1681954556
260,taltal,CL,-25.4,-70.4833,17.96,83,21,0.7,1681954556
261,wurtulla,AU,-26.7568,153.1256,24.61,59,94,3.13,1681954557
262,mirnyy,RU,62.5353,113.9611,-5.98,41,100,4.92,1681954557
263,sao felix do xingu,BR,-6.6447,-51.995,22.46,97,100,0.26,1681954557
264,hit,IQ,33.6416,42.8251,24.86,29,63,2.1,1681954540
265,chichiriviche,VE,10.9333,-68.2772,25.19,84,82,5.02,1681954404
266,ferozepore,IN,30.9167,74.6,23.54,57,1,2.46,1681954558
267,kodiak,US,57.79,-152.4072,6.73,65,100,4.12,1681954332
268,tangalle,LK,6.024,80.7911,26.09,83,38,2.04,1681954558
269,ulsteinvik,NO,62.3432,5.8487,7.4,82,54,4.02,1681954559
270,kirkkonummi,FI,60.1238,24.4385,5.34,75,24,1.22,1681954559
271,sabang,ID,5.8933,95.3214,28.48,74,100,5.15,1681954559
272,sorong,ID,-0.8833,131.25,28.76,71,39,1.99,1681954559
273,hotan,CN,37.0997,79.9269,11.4,46,100,3.18,1681954560
274,pacific grove,US,36.6177,-121.9166,16.32,69,0,7.6,1681954560
275,prado,BR,-17.3411,-39.2208,26.71,89,87,4.63,1681954560
276,ubari,LY,26.5921,12.7805,20.63,19,10,4.9,1681954560
277,madras,IN,13.0878,80.2785,28.99,91,20,4.12,1681954561
278,susuman,RU,62.7833,148.1667,-5.2,73,100,5.49,1681954363
279,newman,US,37.3138,-121.0208,18.13,39,4,3.58,1681954562
280,irymple,AU,-34.25,142.1667,17.27,61,0,0.45,1681954562
281,acarau,BR,-2.8856,-40.12,25.24,87,100,2.73,1681954344
282,shumikha,RU,55.2261,63.2961,2.67,50,100,4.33,1681954563
283,agat village,GU,13.3886,144.6585,31.52,68,40,6.17,1681954564
284,flying fish cove,CX,-10.4217,105.6791,26.87,78,66,8.25,1681954565
285,malpica,ES,43.3228,-8.8105,12.96,78,84,2.68,1681954565
286,arno,SE,60.1167,18.6333,2.66,67,7,1.52,1681954389
287,la peca,PE,-5.6111,-78.435,20.36,93,100,1.93,1681954566
288,aasiaat,GL,68.7098,-52.8699,-17.26,99,45,1.54,1681954383
289,honiton,GB,50.7996,-3.189,7.9,79,0,4.12,1681954567
290,tachilek,,,,,,,,
291,hayma',,,,,,,,
292,keflavik,IS,64.0049,-22.5624,8.24,93,75,9.26,1681954440
293,oranjemund,NA,-28.55,16.4333,14.54,88,99,2.95,1681954423
294,ulladulla,AU,-35.35,150.4667,17.65,66,99,3.59,1681954570
295,rabigh,SA,22.7986,39.0349,28.38,53,0,1.5,1681954571
296,novokruchininskiy,RU,51.7833,113.7667,-7.15,45,100,9.16,1681954572
297,sechura,PE,-5.5569,-80.8222,27.62,65,90,5.8,1681954572
298,manavalakurichi,IN,8.1333,77.3,28.29,78,20,3.03,1681954573
299,governor's harbour,,,,,,,,
300,khovd,MN,48.0056,91.6419,0.09,22,0,4.06,1681954574
301,richards bay,ZA,-28.783,32.0377,19,87,0,5.62,1681954454
302,nuuk,GL,64.1835,-51.7216,-0.66,86,100,3.6,1681954235
303,wattegama,LK,6.7989,81.4808,27.37,74,28,1.81,1681954575
304,cave creek,US,33.8333,-111.9508,23.37,14,57,2.68,1681954576
305,chiat'ura,,,,,,,,
306,northam,GB,51.0333,-4.2167,7.56,73,5,8.99,1681954577
307,ust-nera,RU,64.5667,143.2,-4.86,83,100,4,1681954301
308,cill airne,IE,52.05,-9.5167,8.92,93,74,3.69,1681954577
309,evanston,US,42.0411,-87.6901,10.98,66,100,9.26,1681954578
310,island harbour,GB,50.724,-1.2758,8.29,83,14,4.02,1681954578
311,barreiras,BR,-12.1528,-44.99,22.65,80,97,0.27,1681954579
312,buchanan,LR,5.8808,-10.0467,24.04,88,100,2.27,1681954579
313,gisborne,NZ,-38.6533,178.0042,21.93,66,46,2.91,1681954580
314,khuzdar,PK,27.7384,66.6434,16.56,19,2,4.17,1681954580
315,leninskoye,KZ,41.7589,69.3864,8.73,63,0,1.21,1681954580
316,sisimiut,GL,66.9395,-53.6735,-8.35,82,90,3.74,1681954581
317,clitheroe,GB,53.8667,-2.4,7.06,81,0,5.8,1681954581
318,arkhangel'sk,RU,64.5401,40.5433,2.06,100,100,3,1681954582
319,macas,EC,-2.3167,-78.1167,20.09,97,100,1.03,1681954582
320,tindouf,DZ,27.6711,-8.1474,16.26,63,38,9.06,1681954369
321,sao joao da barra,BR,-21.6403,-41.0511,23.1,90,100,2.39,1681954583
322,isangel,VU,-19.55,169.2667,28.26,64,78,1.13,1681954584
323,kingscliff,AU,-28.2667,153.5667,25.96,46,80,7.2,1681954584
324,kelso,US,46.1468,-122.9084,10.98,83,75,2.57,1681954585
325,jiwani,PK,25.05,61.7417,25.43,79,95,4.66,1681954585
326,praia da vitoria,PT,38.7333,-27.0667,11.14,87,40,6.95,1681954318
327,freetown,SL,8.484,-13.2299,26.84,74,20,4.63,1681954480
328,puerto armuelles,PA,8.2833,-82.8667,27.99,81,77,1.77,1681954586
329,trinity beach,AU,-16.7888,145.6968,30.56,54,97,9.26,1681954587
330,phan rang-thap cham,VN,11.5667,108.9833,31.96,58,19,2.97,1681954588
331,lisala,CD,2.15,21.5167,21.63,91,89,0.44,1681954429
332,muravlenko,RU,63.7898,74.523,-7.48,96,94,3.29,1681954588
333,amalapuram,IN,16.5833,82.0167,29.75,65,6,2.44,1681954589
334,waliso,ET,8.5333,37.9833,16.83,66,100,0.65,1681954589
335,benguela,AO,-12.5763,13.4055,26.82,82,59,1.16,1681954590
336,vostochnyy,RU,55.8167,37.8667,5.61,56,81,2.55,1681954590
337,ta`u,AS,-14.2336,-169.5144,28.51,77,96,8.75,1681954364
338,takamaka,,,,,,,,
339,maevatanana,,,,,,,,
340,zaragoza,ES,41.6561,-0.8773,14.45,62,0,2.06,1681954356
341,kalix,SE,65.853,23.1565,1.19,100,100,2.12,1681954592
342,lata,PT,40.1629,-8.3327,12.73,93,50,0.89,1681954359
343,iwade,JP,34.25,135.3167,24.16,66,63,3.6,1681954593
344,iskushuban,SO,10.2837,50.23,23.26,86,16,1.4,1681954593
345,mount gambier,AU,-37.8333,140.7667,16.65,70,100,3.81,1681954351
346,port lincoln,AU,-34.7333,135.8667,17.31,56,92,3.12,1681954594
347,mount pearl,CA,47.5166,-52.7813,1.58,95,100,6.17,1681954476
348,hithadhoo,MV,-0.6,73.0833,28.56,71,100,2.25,1681954362
349,wellington,NZ,-41.2866,174.7756,19.48,93,100,9.26,1681954481
350,alaca,TR,40.1683,34.8425,8.41,89,12,0.96,1681954596
351,portland,US,45.5234,-122.6762,10.53,71,82,4.47,1681954269
352,calvinia,ZA,-31.4707,19.776,12.27,48,100,2.76,1681954596
353,saint-joseph,RE,-21.3667,55.6167,24.21,82,26,5.21,1681954597
354,xingtai,CN,37.0631,114.4942,24.29,27,3,10.17,1681954597
355,akonolinga,CM,3.7667,12.25,20.38,99,87,0.77,1681954597
356,piacabucu,BR,-10.4056,-36.4344,26.9,81,6,5.49,1681954475
357,luba,GQ,3.4568,8.5547,26.75,85,95,1.2,1681954598
358,urengoy,RU,65.9667,78.3667,-10.11,94,71,1.66,1681954459
359,usinsk,RU,65.9939,57.5281,-1.69,96,100,6.41,1681954599
360,la passe,FR,45.5549,-0.8967,13.13,92,6,4.14,1681954599
361,whakatane,NZ,-37.9585,176.9854,21.6,78,80,2.53,1681954599
362,west bay,KY,19.3667,-81.4167,27.78,81,20,2.57,1681954600
363,shikhany,RU,52.1167,47.2167,6.21,53,86,2.23,1681954600
364,san luis de la loma,MX,17.2706,-100.8939,26.16,74,49,2.75,1681954600
365,masvingo,ZW,-20.0637,30.8277,12.34,91,0,1.61,1681954600
366,mahanoro,MG,-19.9,48.8,22.75,92,13,2.18,1681954600
367,margaret river,AU,-33.95,115.0667,19.36,45,0,4.18,1681954601
368,prince george,CA,53.9166,-122.753,11.69,25,40,3.6,1681954601
369,nantucket,US,41.2835,-70.0995,9.06,71,100,4.12,1681954430
370,mirny,RU,62.5353,113.9611,-5.98,41,100,4.92,1681954557
371,conduaga,PH,8.862,117.4893,30.85,64,38,1.28,1681954602
372,savave village,,,,,,,,
373,labuan bajo,ID,-8.4964,119.8877,28.94,63,23,1.82,1681954602
374,keetmanshoop,NA,-26.5833,18.1333,22.15,33,100,2.47,1681954602
375,teykovo,RU,56.858,40.5369,5.54,74,49,1.21,1681954602
376,saint-francois,FR,46.4154,3.9054,7.04,87,0,1.54,1681954603
377,belmonte,BR,-15.8631,-38.8828,27.25,90,55,4.53,1681954603
378,thiers,FR,45.8333,3.5,11.18,96,9,1,1681954603
379,mangrol,IN,21.1167,70.1167,26.18,71,6,5.62,1681954603
380,kalinkavichy,BY,52.1323,29.3257,6.14,79,92,3.7,1681954603
381,benjamin hill,MX,30.1667,-111.1,22.76,20,0,6.58,1681954604
382,inhambane,MZ,-23.865,35.3833,19.24,85,0,2.65,1681954604
383,namtsy,RU,62.7161,129.6658,-2.14,78,100,3.49,1681954604
384,aoulef,DZ,26.9667,1.0833,25.2,15,0,4.49,1681954604
385,rio grande,BR,-32.035,-52.0986,14.13,76,13,7.06,1681954369
386,itaberai,BR,-16.0203,-49.8103,20.26,96,100,0.76,1681954605
387,n'diareme limamoulaye,,,,,,,,
388,conde,BR,-7.2597,-34.9075,26.7,89,40,1.54,1681954605
389,tamanrasset,DZ,22.785,5.5228,18.95,14,0,2.06,1681954605
390,lesogorsk,RU,56.0458,99.5136,-4.24,66,100,3.61,1681954606
391,juan griego,VE,11.0817,-63.9655,20.07,100,15,10.29,1681954606
392,ahau,,,,,,,,
393,mili,MH,6.0815,171.735,28.08,80,100,5.33,1681954606
394,thunder bay,CA,48.4001,-89.3168,2.99,48,100,3.6,1681954546
395,nemuro,JP,43.3236,145.575,6.11,82,97,3.99,1681954223
396,bonthe,SL,7.5264,-12.505,27.21,83,58,2.38,1681954435
397,san julian,MX,21.0167,-102.1667,22.21,17,99,4.45,1681954607
398,camiri,BO,-20.05,-63.5167,15.15,95,5,1.07,1681954607
399,dossor,KZ,47.5272,52.9811,8.44,40,91,5.88,1681954607
400,usogorsk,RU,63.4106,48.6872,-1.15,96,100,2.99,1681954297
401,smithers,CA,54.7804,-127.1743,8.18,46,75,4.63,1681954217
402,mejit,MH,10.2753,170.8646,26.62,82,100,7.69,1681954186
403,samal,PH,7.0744,125.7083,30.04,74,40,1.03,1681954608
404,magadan,RU,59.5667,150.8,1.76,77,88,4.55,1681954419
405,yamada,JP,39.4667,141.95,17.54,42,9,5.84,1681954402
406,sur,OM,22.5667,59.5289,27.23,64,80,4.08,1681954167
407,laojunmiao,CN,39.8333,97.7333,0.79,22,100,4.07,1681954424
408,barcelos,PT,41.5388,-8.6151,15.47,94,58,0.73,1681954611
409,tionk essil,SN,12.7856,-16.5217,24.03,46,86,4.35,1681954611
410,buka,UZ,40.8108,69.1986,9.23,52,0,1.27,1681954344
411,nizao,DO,18.25,-70.2,26.04,78,0,2.92,1681954612
412,azna,IR,33.6095,48.9307,12.12,57,0,0.28,1681954612
413,mahemdavad,IN,22.8333,72.7667,26.14,42,30,3.81,1681954612
414,princeville,CA,45.7668,-61.2985,5.73,91,0,3.6,1681954613
415,khandyga,RU,62.6667,135.6,-1.26,81,100,2.03,1681954407
416,chambas,CU,22.1928,-78.9136,23.95,75,100,2.55,1681954613
417,wamba,NG,8.9333,8.6,25.06,79,100,1.51,1681954613
418,namibe,AO,-15.1961,12.1522,24.94,76,97,1.72,1681954128
419,jayapura,ID,-2.5333,140.7,27.66,91,100,1.2,1681954614
420,malango,ID,-2.9627,119.9001,27.04,67,59,1.48,1681954614
421,upington,ZA,-28.4478,21.2561,22.21,23,0,2.06,1681954614
422,dame-marie,HT,18.5667,-74.4167,24.88,79,4,1.35,1681954615
423,torghay,KZ,49.6339,63.4981,4.38,87,28,3.48,1681954615
424,gandajika,CD,-6.75,23.95,19.29,96,17,1.44,1681954615
425,hadibu,YE,12.65,54.0333,26.73,77,9,2.47,1681954359
426,taoudenni,ML,22.6783,-3.9836,27.92,18,99,5.12,1681954615
427,bel ombre,SC,-4.6167,55.4167,25.91,94,75,1.03,1681954457
428,visby,SE,57.6409,18.296,3.91,75,4,4.63,1681954328
429,afaahiti,PF,-17.75,-149.2833,28.93,83,97,6.39,1681954371
430,meulaboh,ID,4.1363,96.1285,24.97,88,100,1.75,1681954424
431,amos,CA,48.5669,-78.1162,-2.77,83,100,3.21,1681954433
432,merizo village,GU,13.2658,144.6691,31.31,75,86,8.17,1681954616
433,mil'kovo,RU,55.6078,37.7956,5.73,68,83,2.8,1681954617
434,el sauzal de rodriguez,MX,31.9,-116.6833,14.68,72,97,3.93,1681954617
435,hasaki,JP,35.7333,140.8333,20.22,80,57,2.18,1681954326
436,vila franca do campo,PT,37.7167,-25.4333,13.23,70,97,5.97,1681954617
437,holualoa,US,19.6228,-155.9522,23.21,93,100,10.29,1681954354
438,arraial do cabo,BR,-22.9661,-42.0278,23.81,82,100,4.42,1681954331
439,carauari,BR,-4.8828,-66.8958,24.52,87,98,1.45,1681954618
440,gueltat zemmour,,,,,,,,
441,domoni,KM,-12.2569,44.5319,26.5,85,84,2.75,1681954618
442,port macquarie,AU,-31.4333,152.9167,23.27,60,85,5.12,1681954619
443,dalandzadgad,MN,43.5708,104.425,5.8,12,74,3.76,1681954619
444,san antonio,US,29.4241,-98.4936,25.14,73,75,9.26,1681954325
445,sailana,IN,23.4667,74.9167,26.68,31,100,4.52,1681954619
446,cable beach,,,,,,,,
447,berezovyy,RU,51.6667,135.7,0.83,89,100,4.41,1681954299
448,dolores,AR,-36.3132,-57.6792,8.08,77,0,2.73,1681954620
449,mata-utu,WF,-13.2816,-176.1745,28.77,75,100,7.45,1681954620
450,lichtenburg,ZA,-26.152,26.1597,12.31,39,0,1.75,1681954620
451,murudeshwara,IN,14.0943,74.4845,27.77,73,68,1.91,1681954621
452,cidreira,BR,-30.1811,-50.2056,15.08,65,32,6.94,1681954435
453,dryden,CA,49.7833,-92.7503,4.16,35,100,4.12,1681954431
454,zhangatas,KZ,43.5667,69.75,4.29,38,1,6.57,1681954622
455,goundam,ML,16.4145,-3.6708,29.08,17,43,2.82,1681954622
456,westport,US,41.1415,-73.3579,10.68,59,0,1.54,1681954040
457,singaraja,ID,-8.112,115.0882,29.67,67,91,0.45,1681954623
458,lubao,PH,14.9167,120.55,31.04,61,18,2.98,1681954623
459,ceerigaabo,SO,10.6162,47.368,16.29,67,22,1.76,1681954624
460,great bend,US,38.3645,-98.7648,25.07,22,0,1.54,1681954364
461,dodge city,US,37.7528,-100.0171,25.52,13,100,1.79,1681954423
462,ouro preto do oeste,BR,-10.7481,-62.2158,23.47,96,100,0.32,1681954625
463,yelizovo,RU,53.1873,158.3805,7.08,53,75,7,1681954626
464,golbasi,TR,37.7836,37.6367,12.31,90,98,2.42,1681954627
465,tofol,FM,5.3248,163.0078,27.9,79,60,5.9,1681954473
466,harper,LR,4.375,-7.7169,25.35,87,100,1.84,1681954465
467,polyarnyy,RU,69.1989,33.4478,3.16,93,100,8.88,1681954419
468,ghatsila,IN,22.6,86.4833,27.25,13,6,2.29,1681954628
469,catarama,EC,-1.5833,-79.4667,23.9,97,100,0.94,1681954629
470,baturaja,ID,-4.1333,104.1667,25.63,90,100,0.24,1681954629
471,porto novo,BJ,6.4965,2.6036,27.9,80,100,2.08,1681954630
472,kuraymah,SD,18.55,31.85,26.26,12,0,4.64,1681954630
473,rumbek,SS,6.802,29.6912,25.13,72,100,1.57,1681954631
474,yazd,IR,31.8972,54.3675,19.06,20,0,2.06,1681954632
475,magomeni,TZ,-6.8,39.25,24.21,100,20,2.57,1681954633
476,kapa'a,US,22.0752,-159.319,27.33,67,40,7.2,1681954634
477,grand baie,MU,-20.0182,57.5802,25.26,81,8,2.24,1681954346
478,nuku'alofa,TO,-21.1333,-175.2,27.19,78,75,6.69,1681954635
479,antofagasta,CL,-23.65,-70.4,17.6,85,58,0.25,1681954303
480,skowhegan,US,44.7651,-69.7192,6.31,79,6,2.71,1681954636
481,morant bay,JM,17.8815,-76.4093,27.79,84,4,3,1681954636
482,white river,ZA,-25.3318,31.0117,12.53,88,0,1.03,1681954636
483,sungai raya,ID,0.7,108.9,30.61,63,92,0.52,1681954636
484,edmundston,CA,47.3737,-68.3251,4.63,74,20,5.14,1681954362
485,mazagao,BR,-0.115,-51.2894,26.03,94,94,1.24,1681954637
486,cuamba,MZ,-14.8031,36.5372,17.77,99,18,1.36,1681954638
487,manatutu,,,,,,,,
488,flin flon,CA,54.7682,-101.865,-2.14,91,100,5.02,1681954639
489,tobelo,ID,1.7284,128.0095,29.14,71,35,1.98,1681954372
490,pangody,RU,65.85,74.4859,-11.43,94,74,1.56,1681954639
491,huicheng,CN,23.0385,116.2899,25.69,83,88,1.14,1681954639
492,hami,CN,42.8,93.45,8.37,14,48,1.82,1681954199
493,den helder,NL,52.9599,4.7593,8.99,73,5,5.81,1681954382
494,queenstown,ZA,-31.8976,26.8753,14.53,33,75,2.99,1681954311
495,raposa,BR,-6.5167,-44.1833,21.7,95,100,0.84,1681954641
496,devonport,AU,-41.1667,146.35,17.79,82,100,0.89,1681954641
497,goth phulji,PK,26.8825,67.6807,27.07,19,2,3.87,1681954642
498,usevia,TZ,-7.1,31.2333,17.89,97,27,1.51,1681954642
499,port moresby,PG,-9.4431,147.1797,30.68,55,40,5.14,1681954643
500,kingston,JM,17.997,-76.7936,27.53,81,20,5.66,1681954346
501,brisas de zicatela,MX,15.8369,-97.0419,28.29,65,40,3.09,1681954643
502,tazacorte,ES,28.629,-17.9293,18.54,84,100,2.06,1681954361
503,trevelin,AR,-43.0858,-71.4639,14.71,91,100,1.28,1681954644
504,turochak,RU,52.2576,87.1224,-6.07,85,100,1.3,1681954644
505,selfoss,IS,63.9331,-20.9971,6.57,93,4,2.4,1681954434
506,long xuyen,VN,10.3833,105.4167,28.97,60,100,4.07,1681954645
507,lebowakgomo,ZA,-24.2,29.5,11.25,69,0,1.87,1681954646
508,lethem,GY,3.3803,-59.7968,27.37,67,77,4.51,1681954237
509,makurazaki,JP,31.2667,130.3167,18.78,74,100,6.97,1681954647
510,chegdomyn,RU,51.1167,133.0167,3.05,83,100,3.31,1681954647
511,murzuq,LY,25.9155,13.9184,19.71,17,86,4.81,1681954309
512,talagang,PK,32.9297,72.4158,17.3,75,32,1.55,1681954648
513,ashburton,AU,-37.8626,145.0794,18.85,64,20,0.45,1681954648
514,port-de-paix,,,,,,,,
515,rokytne,UA,51.2796,27.214,6.03,87,62,2.89,1681954649
516,saint-philippe,RE,-21.3585,55.7679,24.77,84,34,5.36,1681954107
517,valjevo,RS,44.2751,19.8982,9.07,81,97,1.54,1681954650
518,lompoc,US,34.6391,-120.4579,21.12,75,0,11.18,1681954302
519,hopelchen,MX,19.7667,-89.85,28.86,52,15,2.88,1681954651
520,arteche,PH,12.2645,125.4048,29.62,70,16,3.66,1681954483
521,asipovichy,BY,53.2933,28.6422,6.34,84,43,3.32,1681954652
522,jokioinen,FI,60.8016,23.48,1.05,82,21,1.48,1681954652
523,miyaly,KZ,48.8844,53.7836,7.54,41,100,4.26,1681954652
524,greenland,US,43.0362,-70.8328,8.31,57,100,4.12,1681954653
525,kismayo,SO,-0.3582,42.5454,27.29,81,99,4.03,1681954654
526,valdivia,CL,-39.8142,-73.2459,10.05,96,94,1.33,1681954657
527,labytnangi,RU,66.6572,66.4183,-7.94,91,100,1.52,1681954657
528,st. paul,US,44.9444,-93.0933,5.72,81,100,8.94,1681954455
529,puerto lleras,CO,3.0223,-73.4044,22.82,95,100,1.48,1681954658
530,alofi,NU,-19.0595,-169.9187,27.94,83,75,4.12,1681954658
531,minas de marcona,PE,-15.2119,-75.1103,16.36,80,8,3.25,1681954370
532,flagstaff,US,35.1981,-111.6513,12.81,17,0,4.12,1681954567
533,hirapur hamesha,IN,21.5333,79.7667,32.24,23,14,2.01,1681954659
534,razole,IN,16.4833,81.8333,29.85,65,6,2.65,1681954659
535,tshabong,BW,-26.05,22.45,17.6,27,0,5,1681954340
536,page,US,36.9147,-111.4558,15.88,9,0,7.15,1681954607
537,reggane,DZ,26.7158,0.1714,24.72,16,0,4.53,1681954399
538,puerto yuca,CO,2.9383,-73.2083,23.35,93,100,1.42,1681954660
539,shaowu,CN,27.3409,117.4831,22.72,87,100,1.06,1681954660
540,corinto,GR,37.9407,22.9573,10.5,79,5,3.36,1681954661
541,lorengau,PG,-2.0226,147.2712,28.19,78,80,2.84,1681954661
542,conception bay south,CA,47.4999,-52.9981,1.91,94,100,6.31,1681954661
543,nova olinda do norte,BR,-3.8881,-59.0942,24.46,90,100,0.46,1681954661
544,yanchep,AU,-31.55,115.6833,22.01,33,48,5.68,1681954662
545,belyy yar,RU,53.6039,91.3903,-3.06,54,0,5,1681954662
546,guatire,VE,10.4762,-66.5427,21.22,95,96,0.95,1681954662
547,baglung,NP,28.2719,83.5898,26.16,23,99,1.31,1681954662
548,sungai penuh,ID,-2.0833,101.3833,22.29,77,100,0.26,1681954662
549,laguna,US,38.421,-121.4238,18.99,29,0,4.63,1681954348
550,'ali sabieh,DJ,11.1558,42.7125,25.07,84,86,6.97,1681954663
551,saldanha,ZA,-33.0117,17.9442,15.85,94,100,8.71,1681954306
552,cao bang,VN,22.6667,106.25,27.83,78,84,1.62,1681954663
553,dedza,MW,-14.3779,34.3332,11.95,94,17,0.84,1681954663
554,jeremoabo,BR,-10.075,-38.4808,25.49,72,100,1.96,1681954664
555,puerto baquerizo moreno,EC,-0.9,-89.6,25.99,80,100,3.6,1681954664
556,gadzhiyevo,RU,69.2551,33.3362,2.99,92,100,8.99,1681954115
557,novodvinsk,RU,64.4165,40.8122,1.86,99,100,2.23,1681954664
558,machico,PT,32.7,-16.7667,18.34,79,20,1.03,1681954665
559,madalena,PT,41.2162,-8.3345,14.7,86,18,0.64,1681954665
560,nizhniy kuranakh,RU,58.8353,125.4869,-1.81,83,100,3.4,1681954665
561,tsengel,MN,49.4783,100.8894,-3.72,59,100,2.64,1681954381
562,tshikapa,CD,-6.4167,20.8,21.58,95,55,0.86,1681954666
563,zhangye,CN,38.9342,100.4517,7.94,13,100,4.15,1681954666
564,pathein,MM,16.7833,94.7333,31.63,57,10,4.06,1681954666
565,weno,FM,7.4515,151.8468,30.97,74,75,4.63,1681954298
566,gamba,GA,-2.65,10,24.45,95,100,2.2,1681954455
567,atar,MR,20.5169,-13.0499,24.34,23,97,0.94,1681954667
568,valparaiso,CL,-33.0393,-71.6273,17.22,55,0,2.57,1681954347
569,plettenberg bay,ZA,-34.0527,23.3716,16.96,79,96,2.4,1681954667
570,kapuskasing,CA,49.4169,-82.4331,-0.95,80,75,3.09,1681954456
571,mozarlandia,BR,-14.7447,-50.5706,22.5,93,100,0.35,1681954668
572,beidaihehaibin,CN,39.8222,119.5181,12.04,49,100,10.99,1681954668
573,erdenet,MN,49.0333,104.0833,-4.58,33,100,1.35,1681954668
574,nato,PH,13.6105,123.5356,30.24,71,21,2.43,1681954668
575,talara,PE,-4.5772,-81.2719,26.09,81,97,4.46,1681954669
576,kirakira,SB,-10.4544,161.9205,28.75,70,99,2.63,1681954669
577,bang saphan,TH,11.2126,99.5117,31.7,59,56,3.01,1681954669
578,zheleznodorozhnyy,RU,55.7503,38.0042,5.75,68,79,2.42,1681954669
579,harstad,NO,68.799,16.5293,6.45,96,100,6.71,1681954312
580,caleta de carquin,PE,-11.0925,-77.6267,23.6,82,66,4.46,1681954670
581,tinajo,ES,29.0788,-13.7081,17.49,77,20,1.03,1681954670
582,orkelljunga,,,,,,,,
583,lazaro cardenas,MX,17.9583,-102.2,25.29,78,21,2.99,1681954671
